{ "type": "FeatureCollection","features": [
{ "type": "Feature","geometry": {"type": "Point","coordinates":[-122.374312,37.619186]},"properties": {"name": "San Francisco International Airport (SFO)", "locality":"San Francisco"}},
{ "type": "Feature","geometry": {"type": "Point","coordinates":[ -71.075097, 42.347227]},"properties": {"name": "Back Bay Dry Cleaners", "locality":"Boston"}},
{ "type": "Feature","geometry": {"type": "Point","coordinates":[ -122.408469, 37.788953]},"properties": {"name": "Sir Francis Drake San Francisco, a Kimpton Hotel", "locality":"San Francisco"}},
{ "type": "Feature","geometry": {"type": "Point","coordinates":[ -122.401981, 37.78622]},"properties": {"name": "Yerba Buena Center for the Arts", "locality":"San Francisco"}},
{ "type": "Feature","geometry": {"type": "Point","coordinates":[ -122.408513, 37.786459]},"properties": {"name": "Starbucks", "locality":"San Francisco"}},
{ "type": "Feature","geometry": {"type": "Point","coordinates":[ -122.406445, 37.785879]},"properties": {"name": "Apple Store", "locality":"San Francisco"}},
{ "type": "Feature","geometry": {"type": "Point","coordinates":[ -122.408694, 37.788361]},"properties": {"name": "Morton's The Steakhouse", "locality":"San Francisco"}},
{ "type": "Feature","geometry": {"type": "Point","coordinates":[ -122.401573, 37.786073]},"properties": {"name": "The St Regis San Francisco", "locality":"San Francisco"}},
{ "type": "Feature","geometry": {"type": "Point","coordinates":[ -122.422714, 37.826586]},"properties": {"name": "Alcatraz", "locality":"San Francisco"}},
{ "type": "Feature","geometry": {"type": "Point","coordinates":[ -71.06188, 42.366246]},"properties": {"name": "TD Garden", "locality":"Boston"}},
{ "type": "Feature","geometry": {"type": "Point","coordinates":[ -122.447204, 37.721256]},"properties": {"name": "City Carshare #80 - Balboa Park BART", "locality":"San Francisco"}},
{ "type": "Feature","geometry": {"type": "Point","coordinates":[ -122.402809, 37.786642]},"properties": {"name": "The Westin San Francisco Market Street", "locality":"San Francisco"}},
{ "type": "Feature","geometry": {"type": "Point","coordinates":[ -122.405627, 37.786056]},"properties": {"name": "Starbucks", "locality":"San Francisco"}},
{ "type": "Feature","geometry": {"type": "Point","coordinates":[ -122.404638, 37.784961]},"properties": {"name": "San Francisco Marriott Marquis", "locality":"San Francisco"}},
{ "type": "Feature","geometry": {"type": "Point","coordinates":[ -122.410175, 37.782542]},"properties": {"name": "The Warfield", "locality":"San Francisco"}},
{ "type": "Feature","geometry": {"type": "Point","coordinates":[ -122.401712, 37.788269]},"properties": {"name": "Palace Hotel", "locality":"San Francisco"}},
{ "type": "Feature","geometry": {"type": "Point","coordinates":[ -71.085555, 42.342947]},"properties": {"name": "Boston Symphony Orchestra", "locality":"Boston"}},
{ "type": "Feature","geometry": {"type": "Point","coordinates":[ -71.050614, 42.358931]},"properties": {"name": "New England Aquarium", "locality":"Boston"}},
{ "type": "Feature","geometry": {"type": "Point","coordinates":[ -122.408787, 37.787643]},"properties": {"name": "Westin St Francis", "locality":"San Francisco"}},
{ "type": "Feature","geometry": {"type": "Point","coordinates":[ -122.399617, 37.780994]},"properties": {"name": "Whole Foods Market", "locality":"San Francisco"}},
{ "type": "Feature","geometry": {"type": "Point","coordinates":[ -122.404526, 37.786575]},"properties": {"name": "Seasons at the Four Seasons Hotel", "locality":"San Francisco"}},
{ "type": "Feature","geometry": {"type": "Point","coordinates":[ -71.077883, 42.348474]},"properties": {"name": "The Westin Copley Place", "locality":"Boston"}},
{ "type": "Feature","geometry": {"type": "Point","coordinates":[ -122.401106, 37.787643]},"properties": {"name": "Starbucks", "locality":"San Francisco"}},
{ "type": "Feature","geometry": {"type": "Point","coordinates":[ -122.410767, 37.770697]},"properties": {"name": "Costco", "locality":"San Francisco"}},
{ "type": "Feature","geometry": {"type": "Point","coordinates":[ -122.447817, 37.801468]},"properties": {"name": "Palace of Fine Arts Theatre", "locality":"San Francisco"}},
{ "type": "Feature","geometry": {"type": "Point","coordinates":[ -122.385483, 37.713575]},"properties": {"name": "Candlestick Park", "locality":"San Francisco"}},
{ "type": "Feature","geometry": {"type": "Point","coordinates":[ -122.394319, 37.781506]},"properties": {"name": "South Park Cafe", "locality":"San Francisco"}},
{ "type": "Feature","geometry": {"type": "Point","coordinates":[ -71.082415, 42.348733]},"properties": {"name": "Apple Store, Boylston Street", "locality":"Boston"}},
{ "type": "Feature","geometry": {"type": "Point","coordinates":[ -122.406358, 37.78395]},"properties": {"name": "Bloomingdale's", "locality":"San Francisco"}},
{ "type": "Feature","geometry": {"type": "Point","coordinates":[ -71.065292, 42.350999]},"properties": {"name": "W Boston", "locality":"Boston"}},
{ "type": "Feature","geometry": {"type": "Point","coordinates":[ -122.40637, 37.797668]},"properties": {"name": "City Lights Bookstore", "locality":"San Francisco"}},
{ "type": "Feature","geometry": {"type": "Point","coordinates":[ -71.075572, 42.346802]},"properties": {"name": "Equinox", "locality":"Boston"}},
{ "type": "Feature","geometry": {"type": "Point","coordinates":[ -122.435023, 37.762369]},"properties": {"name": "Twin Peaks Tavern", "locality":"San Francisco"}},
{ "type": "Feature","geometry": {"type": "Point","coordinates":[ -122.401208, 37.791992]},"properties": {"name": "Equinox", "locality":"San Francisco"}},
{ "type": "Feature","geometry": {"type": "Point","coordinates":[ -71.039331, 42.313758]},"properties": {"name": "Boating in Boston at UMass", "locality":"Boston"}},
{ "type": "Feature","geometry": {"type": "Point","coordinates":[ -122.393058, 37.793541]},"properties": {"name": "Hotel Vitale", "locality":"San Francisco"}},
{ "type": "Feature","geometry": {"type": "Point","coordinates":[ -122.434888, 37.762014]},"properties": {"name": "Castro Theatre", "locality":"San Francisco"}},
{ "type": "Feature","geometry": {"type": "Point","coordinates":[ -122.424053, 37.799364]},"properties": {"name": "Da Vinci Villa", "locality":"San Francisco"}},
{ "type": "Feature","geometry": {"type": "Point","coordinates":[ -122.426308, 37.804621]},"properties": {"name": "Fort Mason Center", "locality":"San Francisco"}},
{ "type": "Feature","geometry": {"type": "Point","coordinates":[ -71.065145, 42.350517]},"properties": {"name": "Shubert Theatre", "locality":"Boston"}},
{ "type": "Feature","geometry": {"type": "Point","coordinates":[ -122.447353, 37.769981]},"properties": {"name": "Haight Ashbury Music Center", "locality":"San Francisco"}},
{ "type": "Feature","geometry": {"type": "Point","coordinates":[ -71.079381, 42.349527]},"properties": {"name": "Boston Public Library", "locality":"Boston"}},
{ "type": "Feature","geometry": {"type": "Point","coordinates":[ -122.404584, 37.786496]},"properties": {"name": "Four Seasons Hotel San Francisco", "locality":"San Francisco"}},
{ "type": "Feature","geometry": {"type": "Point","coordinates":[ -122.483438, 37.769026]},"properties": {"name": "Golden Gate Park", "locality":"San Francisco"}},
{ "type": "Feature","geometry": {"type": "Point","coordinates":[ -71.100257, 42.349494]},"properties": {"name": "Boston University", "locality":"Boston"}},
{ "type": "Feature","geometry": {"type": "Point","coordinates":[ -71.055266, 42.352396]},"properties": {"name": "McDonald's", "locality":"Boston"}},
{ "type": "Feature","geometry": {"type": "Point","coordinates":[ -122.408049, 37.782436]},"properties": {"name": "Mezzanine", "locality":"San Francisco"}},
{ "type": "Feature","geometry": {"type": "Point","coordinates":[ -122.402734, 37.764477]},"properties": {"name": "Whole Foods Market", "locality":"San Francisco"}},
{ "type": "Feature","geometry": {"type": "Point","coordinates":[ -71.087999, 42.347138]},"properties": {"name": "Boloco", "locality":"Boston"}},
{ "type": "Feature","geometry": {"type": "Point","coordinates":[ -122.405999, 37.802873]},"properties": {"name": "Coit Tower", "locality":"San Francisco"}},
{ "type": "Feature","geometry": {"type": "Point","coordinates":[ -122.483646, 37.792834]},"properties": {"name": "Baker Beach", "locality":"San Francisco"}},
{ "type": "Feature","geometry": {"type": "Point","coordinates":[ -71.025341, 42.363251]},"properties": {"name": "Legal Sea Foods", "locality":"Boston"}},
{ "type": "Feature","geometry": {"type": "Point","coordinates":[ -122.407152, 37.78341]},"properties": {"name": "Hotel Zetta San Francisco", "locality":"San Francisco"}},
{ "type": "Feature","geometry": {"type": "Point","coordinates":[ -71.075988, 42.348481]},"properties": {"name": "Starbucks", "locality":"Boston"}},
{ "type": "Feature","geometry": {"type": "Point","coordinates":[ -71.061116, 42.353469]},"properties": {"name": "Hyatt Regency Boston", "locality":"Boston"}},
{ "type": "Feature","geometry": {"type": "Point","coordinates":[ -122.429838, 37.766394]},"properties": {"name": "Walgreens", "locality":"San Francisco"}},
{ "type": "Feature","geometry": {"type": "Point","coordinates":[ -122.412504, 37.786958]},"properties": {"name": "Hotel Adagio", "locality":"San Francisco"}},
{ "type": "Feature","geometry": {"type": "Point","coordinates":[ -122.414964, 37.808403]},"properties": {"name": "Bistro Boudin", "locality":"San Francisco"}},
{ "type": "Feature","geometry": {"type": "Point","coordinates":[ -122.421677, 37.795886]},"properties": {"name": "Shanghai Kelly's", "locality":"San Francisco"}},
{ "type": "Feature","geometry": {"type": "Point","coordinates":[ -122.40981, 37.787588]},"properties": {"name": "Slide Co.", "locality":"San Francisco"}},
{ "type": "Feature","geometry": {"type": "Point","coordinates":[ -122.48003, 37.763561]},"properties": {"name": "Walgreens", "locality":"San Francisco"}},
{ "type": "Feature","geometry": {"type": "Point","coordinates":[ -122.413281, 37.791344]},"properties": {"name": "Nob Hill Masonic Center", "locality":"San Francisco"}},
{ "type": "Feature","geometry": {"type": "Point","coordinates":[ -71.071258, 42.344355]},"properties": {"name": "Boston Center for the Arts", "locality":"Boston"}},
{ "type": "Feature","geometry": {"type": "Point","coordinates":[ -71.049686, 42.360009]},"properties": {"name": "Chart House Restaurant", "locality":"Boston"}},
{ "type": "Feature","geometry": {"type": "Point","coordinates":[ -71.041364, 42.349238]},"properties": {"name": "Aura Restaurant", "locality":"Boston"}},
{ "type": "Feature","geometry": {"type": "Point","coordinates":[ -122.46151, 37.796424]},"properties": {"name": "Presidio Officers Club", "locality":"San Francisco"}},
{ "type": "Feature","geometry": {"type": "Point","coordinates":[ -122.437793, 37.775484]},"properties": {"name": "The Independent", "locality":"San Francisco"}},
{ "type": "Feature","geometry": {"type": "Point","coordinates":[ -71.084464, 42.34252]},"properties": {"name": "Red Mango", "locality":"Boston"}},
{ "type": "Feature","geometry": {"type": "Point","coordinates":[ -71.079797, 42.347604]},"properties": {"name": "Shaw's Supermarket", "locality":"Boston"}},
{ "type": "Feature","geometry": {"type": "Point","coordinates":[ -122.411195, 37.786906]},"properties": {"name": "Clift San Francisco", "locality":"San Francisco"}},
{ "type": "Feature","geometry": {"type": "Point","coordinates":[ -122.414208, 37.802896]},"properties": {"name": "Cobb's Comedy Club", "locality":"San Francisco"}},
{ "type": "Feature","geometry": {"type": "Point","coordinates":[ -122.410711, 37.808611]},"properties": {"name": "Pier 39", "locality":"San Francisco"}},
{ "type": "Feature","geometry": {"type": "Point","coordinates":[ -122.409876, 37.775347]},"properties": {"name": "Cat Club", "locality":"San Francisco"}},
{ "type": "Feature","geometry": {"type": "Point","coordinates":[ -71.118154, 42.359836]},"properties": {"name": "DoubleTree Suites by Hilton Hotel Boston", "locality":"Boston"}},
{ "type": "Feature","geometry": {"type": "Point","coordinates":[ -122.46684, 37.769856]},"properties": {"name": "The Moss Room", "locality":"San Francisco"}},
{ "type": "Feature","geometry": {"type": "Point","coordinates":[ -71.119517, 42.351767]},"properties": {"name": "Paradise Rock Club", "locality":"Boston"}},
{ "type": "Feature","geometry": {"type": "Point","coordinates":[ -71.052385, 42.354062]},"properties": {"name": "InterContinental Boston", "locality":"Boston"}},
{ "type": "Feature","geometry": {"type": "Point","coordinates":[ -71.061369, 42.364054]},"properties": {"name": "Onyx Hotel Boston, a Kimpton Hotel", "locality":"Boston"}},
{ "type": "Feature","geometry": {"type": "Point","coordinates":[ -122.403918, 37.790692]},"properties": {"name": "Starbucks", "locality":"San Francisco"}},
{ "type": "Feature","geometry": {"type": "Point","coordinates":[ -71.059303, 42.359439]},"properties": {"name": "Starbucks", "locality":"Boston"}},
{ "type": "Feature","geometry": {"type": "Point","coordinates":[ -122.396378, 37.76509]},"properties": {"name": "Bottom of the Hill", "locality":"San Francisco"}},
{ "type": "Feature","geometry": {"type": "Point","coordinates":[ -122.40716, 37.789038]},"properties": {"name": "Grand Hyatt San Francisco", "locality":"San Francisco"}},
{ "type": "Feature","geometry": {"type": "Point","coordinates":[ -71.068709, 42.362634]},"properties": {"name": "Massachusetts General Hospital", "locality":"Boston"}},
{ "type": "Feature","geometry": {"type": "Point","coordinates":[ -71.064696, 42.351557]},"properties": {"name": "Cutler Majestic Theatre", "locality":"Boston"}},
{ "type": "Feature","geometry": {"type": "Point","coordinates":[ -122.413338, 37.77148]},"properties": {"name": "Slim's", "locality":"San Francisco"}},
{ "type": "Feature","geometry": {"type": "Point","coordinates":[ -122.408738, 37.786283]},"properties": {"name": "Johnny Foley's Irish House", "locality":"San Francisco"}},
{ "type": "Feature","geometry": {"type": "Point","coordinates":[ -122.393625, 37.776813]},"properties": {"name": "Starbucks", "locality":"San Francisco"}},
{ "type": "Feature","geometry": {"type": "Point","coordinates":[ -122.407343, 37.789042]},"properties": {"name": "Reserve at Grandviews at the Grand Hyatt San Francisco", "locality":"San Francisco"}},
{ "type": "Feature","geometry": {"type": "Point","coordinates":[ -71.061114, 42.356344]},"properties": {"name": "Orpheum Theatre", "locality":"Boston"}},
{ "type": "Feature","geometry": {"type": "Point","coordinates":[ -122.402085, 37.802475]},"properties": {"name": "Il Fornaio", "locality":"San Francisco"}},
{ "type": "Feature","geometry": {"type": "Point","coordinates":[ -71.05715, 42.361388]},"properties": {"name": "Bell In Hand Tavern", "locality":"Boston"}},
{ "type": "Feature","geometry": {"type": "Point","coordinates":[ -71.08722, 42.34381]},"properties": {"name": "Whole Foods Market", "locality":"Boston"}},
{ "type": "Feature","geometry": {"type": "Point","coordinates":[ -122.466438, 37.765952]},"properties": {"name": "San Francisco Botanical Garden", "locality":"San Francisco"}},
{ "type": "Feature","geometry": {"type": "Point","coordinates":[ -122.408076, 37.784897]},"properties": {"name": "Sephora", "locality":"San Francisco"}},
{ "type": "Feature","geometry": {"type": "Point","coordinates":[ -71.039138, 42.348846]},"properties": {"name": "Legal Sea Foods - LTK Park Lane", "locality":"Boston"}},
{ "type": "Feature","geometry": {"type": "Point","coordinates":[ -122.447697, 37.783326]},"properties": {"name": "Trader Joe's", "locality":"San Francisco"}},
{ "type": "Feature","geometry": {"type": "Point","coordinates":[ -122.413665, 37.806795]},"properties": {"name": "Sheraton Fisherman's Wharf Hotel", "locality":"San Francisco"}},
{ "type": "Feature","geometry": {"type": "Point","coordinates":[ -122.392569, 37.782417]},"properties": {"name": "21st Amendment Brewery Cafe", "locality":"San Francisco"}},
{ "type": "Feature","geometry": {"type": "Point","coordinates":[ -71.066499, 42.361756]},"properties": {"name": "Holiday Inn", "locality":"Boston"}},
{ "type": "Feature","geometry": {"type": "Point","coordinates":[ -71.060844, 42.354718]},"properties": {"name": "Macy's", "locality":"Boston"}},
{ "type": "Feature","geometry": {"type": "Point","coordinates":[ -122.396015, 37.794123]},"properties": {"name": "Hyatt Regency San Francisco", "locality":"San Francisco"}},
{ "type": "Feature","geometry": {"type": "Point","coordinates":[ -122.410442, 37.785991]},"properties": {"name": "Starbucks", "locality":"San Francisco"}},
{ "type": "Feature","geometry": {"type": "Point","coordinates":[ -122.405631, 37.790264]},"properties": {"name": "Starbucks", "locality":"San Francisco"}},
{ "type": "Feature","geometry": {"type": "Point","coordinates":[ -71.044119, 42.347298]},"properties": {"name": "Boston Convention and Exhibition Center", "locality":"Boston"}},
{ "type": "Feature","geometry": {"type": "Point","coordinates":[ -71.060052, 42.357886]},"properties": {"name": "Omni Parker House", "locality":"Boston"}},
{ "type": "Feature","geometry": {"type": "Point","coordinates":[ -122.433711, 37.804491]},"properties": {"name": "Starbucks", "locality":"San Francisco"}},
{ "type": "Feature","geometry": {"type": "Point","coordinates":[ -122.406343, 37.797567]},"properties": {"name": "Vesuvio Cafe", "locality":"San Francisco"}},
{ "type": "Feature","geometry": {"type": "Point","coordinates":[ -122.437535, 37.774124]},"properties": {"name": "Madrone", "locality":"San Francisco"}},
{ "type": "Feature","geometry": {"type": "Point","coordinates":[ -122.400528, 37.785233]},"properties": {"name": "W San Francisco", "locality":"San Francisco"}},
{ "type": "Feature","geometry": {"type": "Point","coordinates":[ -122.417376, 37.778273]},"properties": {"name": "Bill Graham Civic Auditorium", "locality":"San Francisco"}},
{ "type": "Feature","geometry": {"type": "Point","coordinates":[ -122.407572, 37.784491]},"properties": {"name": "Gap", "locality":"San Francisco"}},
{ "type": "Feature","geometry": {"type": "Point","coordinates":[ -122.390021, 37.789775]},"properties": {"name": "Palomino", "locality":"San Francisco"}},
{ "type": "Feature","geometry": {"type": "Point","coordinates":[ -122.39977, 37.785734]},"properties": {"name": "Fang", "locality":"San Francisco"}},
{ "type": "Feature","geometry": {"type": "Point","coordinates":[ -122.407457, 37.784715]},"properties": {"name": "Powell Street Station", "locality":"San Francisco"}},
{ "type": "Feature","geometry": {"type": "Point","coordinates":[ -122.422129, 37.788549]},"properties": {"name": "Starbucks", "locality":"San Francisco"}},
{ "type": "Feature","geometry": {"type": "Point","coordinates":[ -122.400906, 37.791679]},"properties": {"name": "City Club of San Francisco", "locality":"San Francisco"}},
{ "type": "Feature","geometry": {"type": "Point","coordinates":[ -122.404386, 37.785733]},"properties": {"name": "Amber India", "locality":"San Francisco"}},
{ "type": "Feature","geometry": {"type": "Point","coordinates":[ -122.404802, 37.781873]},"properties": {"name": "InterContinental San Francisco", "locality":"San Francisco"}},
{ "type": "Feature","geometry": {"type": "Point","coordinates":[ -122.463287, 37.78116]},"properties": {"name": "Abbey Tavern", "locality":"San Francisco"}},
{ "type": "Feature","geometry": {"type": "Point","coordinates":[ -122.432702, 37.78338]},"properties": {"name": "Starbucks", "locality":"San Francisco"}},
{ "type": "Feature","geometry": {"type": "Point","coordinates":[ -71.079403, 42.349279]},"properties": {"name": "The Lenox Hotel", "locality":"Boston"}},
{ "type": "Feature","geometry": {"type": "Point","coordinates":[ -71.040788, 42.349313]},"properties": {"name": "Seaport Boston Hotel", "locality":"Boston"}},
{ "type": "Feature","geometry": {"type": "Point","coordinates":[ -71.077767, 42.350977]},"properties": {"name": "MET Back Bay", "locality":"Boston"}},
{ "type": "Feature","geometry": {"type": "Point","coordinates":[ -71.054215, 42.364169]},"properties": {"name": "Mike's Pastry", "locality":"Boston"}},
{ "type": "Feature","geometry": {"type": "Point","coordinates":[ -122.407902, 37.786181]},"properties": {"name": "H&M", "locality":"San Francisco"}},
{ "type": "Feature","geometry": {"type": "Point","coordinates":[ -71.064311, 42.349098]},"properties": {"name": "Doubletree Hotel Boston - Downtown", "locality":"Boston"}},
{ "type": "Feature","geometry": {"type": "Point","coordinates":[ -122.433871, 37.75086]},"properties": {"name": "Walgreens", "locality":"San Francisco"}},
{ "type": "Feature","geometry": {"type": "Point","coordinates":[ -71.088227, 42.3483]},"properties": {"name": "Newbury Street League", "locality":"Boston"}},
{ "type": "Feature","geometry": {"type": "Point","coordinates":[ -71.087612, 42.340648]},"properties": {"name": "YMCA of Greater Boston", "locality":"Boston"}},
{ "type": "Feature","geometry": {"type": "Point","coordinates":[ -122.402106, 37.789598]},"properties": {"name": "24 Hour Fitness", "locality":"San Francisco"}},
{ "type": "Feature","geometry": {"type": "Point","coordinates":[ -122.421183, 37.756471]},"properties": {"name": "Ritual Coffee Roasters", "locality":"San Francisco"}},
{ "type": "Feature","geometry": {"type": "Point","coordinates":[ -71.084614, 42.346342]},"properties": {"name": "Hilton Boston Back Bay", "locality":"Boston"}},
{ "type": "Feature","geometry": {"type": "Point","coordinates":[ -71.098858, 42.346999]},"properties": {"name": "Boston Beer Works", "locality":"Boston"}},
{ "type": "Feature","geometry": {"type": "Point","coordinates":[ -122.482629, 37.754037]},"properties": {"name": "Walgreens", "locality":"San Francisco"}},
{ "type": "Feature","geometry": {"type": "Point","coordinates":[ -122.430695, 37.79763]},"properties": {"name": "Bus Stop", "locality":"San Francisco"}},
{ "type": "Feature","geometry": {"type": "Point","coordinates":[ -122.399576, 37.793317]},"properties": {"name": "Michael Mina", "locality":"San Francisco"}},
{ "type": "Feature","geometry": {"type": "Point","coordinates":[ -122.404926, 37.784971]},"properties": {"name": "Annabelle's Bar and Bistro", "locality":"San Francisco"}},
{ "type": "Feature","geometry": {"type": "Point","coordinates":[ -122.431274, 37.797783]},"properties": {"name": "Perry's", "locality":"San Francisco"}},
{ "type": "Feature","geometry": {"type": "Point","coordinates":[ -122.408597, 37.784929]},"properties": {"name": "Parc 55 Wyndham San Francisco - Union Square", "locality":"San Francisco"}},
{ "type": "Feature","geometry": {"type": "Point","coordinates":[ -122.417462, 37.805816]},"properties": {"name": "Marriott Hotels Resorts Suites", "locality":"San Francisco"}},
{ "type": "Feature","geometry": {"type": "Point","coordinates":[ -71.098846, 42.338716]},"properties": {"name": "Isabella Stewart Gardner Museum", "locality":"Boston"}},
{ "type": "Feature","geometry": {"type": "Point","coordinates":[ -122.425116, 37.78426]},"properties": {"name": "The Event Center Saint Mary's Cathedral", "locality":"San Francisco"}},
{ "type": "Feature","geometry": {"type": "Point","coordinates":[ -122.510508, 37.769217]},"properties": {"name": "Beach Chalet Brewery and Restaurant", "locality":"San Francisco"}},
{ "type": "Feature","geometry": {"type": "Point","coordinates":[ -71.068849, 42.351183]},"properties": {"name": "M J O'Connor's", "locality":"Boston"}},
{ "type": "Feature","geometry": {"type": "Point","coordinates":[ -122.420656, 37.755404]},"properties": {"name": "Latin American Club", "locality":"San Francisco"}},
{ "type": "Feature","geometry": {"type": "Point","coordinates":[ -122.411503, 37.785145]},"properties": {"name": "Glide Memorial United Methodist Church", "locality":"San Francisco"}},
{ "type": "Feature","geometry": {"type": "Point","coordinates":[ -71.05691, 42.360908]},"properties": {"name": "Hennessys", "locality":"Boston"}},
{ "type": "Feature","geometry": {"type": "Point","coordinates":[ -122.244247, 37.905345]},"properties": {"name": "Inspiration Point", "locality":"San Francisco"}},
{ "type": "Feature","geometry": {"type": "Point","coordinates":[ -122.408452, 37.799667]},"properties": {"name": "Columbus Cafe", "locality":"San Francisco"}},
{ "type": "Feature","geometry": {"type": "Point","coordinates":[ -122.403017, 37.79299]},"properties": {"name": "Omni San Francisco Hotel", "locality":"San Francisco"}},
{ "type": "Feature","geometry": {"type": "Point","coordinates":[ -122.437851, 37.774752]},"properties": {"name": "Jay's Cheesesteak", "locality":"San Francisco"}},
{ "type": "Feature","geometry": {"type": "Point","coordinates":[ -122.410032, 37.772691]},"properties": {"name": "The Stud Bar", "locality":"San Francisco"}},
{ "type": "Feature","geometry": {"type": "Point","coordinates":[ -71.074204, 42.350593]},"properties": {"name": "Marshalls", "locality":"Boston"}},
{ "type": "Feature","geometry": {"type": "Point","coordinates":[ -122.422446, 37.764803]},"properties": {"name": "Dalva", "locality":"San Francisco"}},
{ "type": "Feature","geometry": {"type": "Point","coordinates":[ -71.065391, 42.350026]},"properties": {"name": "Boston Ballroom", "locality":"Boston"}},
{ "type": "Feature","geometry": {"type": "Point","coordinates":[ -71.107339, 42.33742]},"properties": {"name": "Dana-Farber Cancer Institute", "locality":"Boston"}},
{ "type": "Feature","geometry": {"type": "Point","coordinates":[ -122.410247, 37.78801]},"properties": {"name": "Club Donatello", "locality":"San Francisco"}},
{ "type": "Feature","geometry": {"type": "Point","coordinates":[ -122.428654, 37.797818]},"properties": {"name": "The Brick Yard", "locality":"San Francisco"}},
{ "type": "Feature","geometry": {"type": "Point","coordinates":[ -71.048116, 42.320315]},"properties": {"name": "DoubleTree Club by Hilton Hotel Boston Bayside", "locality":"Boston"}},
{ "type": "Feature","geometry": {"type": "Point","coordinates":[ -122.40866, 37.799349]},"properties": {"name": "Z Cioccolato", "locality":"San Francisco"}},
{ "type": "Feature","geometry": {"type": "Point","coordinates":[ -122.447158, 37.78757]},"properties": {"name": "Jewish Community Center of San Francisco", "locality":"San Francisco"}},
{ "type": "Feature","geometry": {"type": "Point","coordinates":[ -71.056938, 42.361534]},"properties": {"name": "Green Dragon Tavern", "locality":"Boston"}},
{ "type": "Feature","geometry": {"type": "Point","coordinates":[ -122.433704, 37.787528]},"properties": {"name": "Florio", "locality":"San Francisco"}},
{ "type": "Feature","geometry": {"type": "Point","coordinates":[ -122.412622, 37.791667]},"properties": {"name": "Grace Cathedral", "locality":"San Francisco"}},
{ "type": "Feature","geometry": {"type": "Point","coordinates":[ -71.060274, 42.36455]},"properties": {"name": "Boston Beer Works", "locality":"Boston"}},
{ "type": "Feature","geometry": {"type": "Point","coordinates":[ -122.422094, 37.790238]},"properties": {"name": "Starbucks", "locality":"San Francisco"}},
{ "type": "Feature","geometry": {"type": "Point","coordinates":[ -122.392861, 37.782247]},"properties": {"name": "The American Grilled Cheese Kitchen", "locality":"San Francisco"}},
{ "type": "Feature","geometry": {"type": "Point","coordinates":[ -122.420321, 37.78846]},"properties": {"name": "Modern Thai", "locality":"San Francisco"}},
{ "type": "Feature","geometry": {"type": "Point","coordinates":[ -122.400164, 37.784947]},"properties": {"name": "Starbucks", "locality":"San Francisco"}},
{ "type": "Feature","geometry": {"type": "Point","coordinates":[ -71.080258, 42.349393]},"properties": {"name": "Uno Chicago Grill", "locality":"Boston"}},
{ "type": "Feature","geometry": {"type": "Point","coordinates":[ -122.403311, 37.795848]},"properties": {"name": "Bubble Lounge", "locality":"San Francisco"}},
{ "type": "Feature","geometry": {"type": "Point","coordinates":[ -122.406785, 37.787507]},"properties": {"name": "Louis Vuitton San Francisco Union Square", "locality":"San Francisco"}},
{ "type": "Feature","geometry": {"type": "Point","coordinates":[ -71.119192, 42.306714]},"properties": {"name": "Arnold Arboretum", "locality":"Boston"}},
{ "type": "Feature","geometry": {"type": "Point","coordinates":[ -122.410476, 37.791611]},"properties": {"name": "InterContinental Mark Hopkins San Francisco", "locality":"San Francisco"}},
{ "type": "Feature","geometry": {"type": "Point","coordinates":[ -122.409677, 37.786801]},"properties": {"name": "King George Hotel", "locality":"San Francisco"}},
{ "type": "Feature","geometry": {"type": "Point","coordinates":[ -122.392878, 37.79557]},"properties": {"name": "Ferry Plaza Seafood", "locality":"San Francisco"}},
{ "type": "Feature","geometry": {"type": "Point","coordinates":[ -122.408208, 37.789441]},"properties": {"name": "San Francisco Marriott Union Square", "locality":"San Francisco"}},
{ "type": "Feature","geometry": {"type": "Point","coordinates":[ -122.396004, 37.795234]},"properties": {"name": "Stone Korean Kitchen", "locality":"San Francisco"}},
{ "type": "Feature","geometry": {"type": "Point","coordinates":[ -122.420819, 37.785049]},"properties": {"name": "AMC Van Ness 14", "locality":"San Francisco"}},
{ "type": "Feature","geometry": {"type": "Point","coordinates":[ -122.432891, 37.76094]},"properties": {"name": "Kasa Indian Eatery", "locality":"San Francisco"}},
{ "type": "Feature","geometry": {"type": "Point","coordinates":[ -122.407945, 37.787535]},"properties": {"name": "The Art of Shaving", "locality":"San Francisco"}},
{ "type": "Feature","geometry": {"type": "Point","coordinates":[ -122.421276, 37.792722]},"properties": {"name": "The Cinch", "locality":"San Francisco"}},
{ "type": "Feature","geometry": {"type": "Point","coordinates":[ -122.418986, 37.756961]},"properties": {"name": "Chase", "locality":"San Francisco"}},
{ "type": "Feature","geometry": {"type": "Point","coordinates":[ -71.095939, 42.336603]},"properties": {"name": "Fenway Libraries Online Wentworth Institute of Tech", "locality":"Boston"}},
{ "type": "Feature","geometry": {"type": "Point","coordinates":[ -71.083982, 42.348301]},"properties": {"name": "Trader Joe's", "locality":"Boston"}},
{ "type": "Feature","geometry": {"type": "Point","coordinates":[ -122.433912, 37.788591]},"properties": {"name": "Elite Cafe", "locality":"San Francisco"}},
{ "type": "Feature","geometry": {"type": "Point","coordinates":[ -122.396885, 37.785803]},"properties": {"name": "Courtyard San Francisco Downtown", "locality":"San Francisco"}},
{ "type": "Feature","geometry": {"type": "Point","coordinates":[ -122.407094, 37.799794]},"properties": {"name": "Maykadeh", "locality":"San Francisco"}},
{ "type": "Feature","geometry": {"type": "Point","coordinates":[ -71.085494, 42.346987]},"properties": {"name": "Kings", "locality":"Boston"}},
{ "type": "Feature","geometry": {"type": "Point","coordinates":[ -122.433855, 37.788384]},"properties": {"name": "La Boulange", "locality":"San Francisco"}},
{ "type": "Feature","geometry": {"type": "Point","coordinates":[ -122.423959, 37.76145]},"properties": {"name": "Tartine Bakery", "locality":"San Francisco"}},
{ "type": "Feature","geometry": {"type": "Point","coordinates":[ -71.098434, 42.347278]},"properties": {"name": "Cask'n Flagon", "locality":"Boston"}},
{ "type": "Feature","geometry": {"type": "Point","coordinates":[ -71.043444, 42.352471]},"properties": {"name": "Institute of Contemporary Art", "locality":"Boston"}},
{ "type": "Feature","geometry": {"type": "Point","coordinates":[ -122.445201, 37.770253]},"properties": {"name": "Magnolia Pub and Brewery", "locality":"San Francisco"}},
{ "type": "Feature","geometry": {"type": "Point","coordinates":[ -122.406042, 37.796078]},"properties": {"name": "Z and Y Restaurant", "locality":"San Francisco"}},
{ "type": "Feature","geometry": {"type": "Point","coordinates":[ -122.422733, 37.772196]},"properties": {"name": "Martuni's", "locality":"San Francisco"}},
{ "type": "Feature","geometry": {"type": "Point","coordinates":[ -122.3997, 37.790582]},"properties": {"name": "Chipotle Mexican Grill", "locality":"San Francisco"}},
{ "type": "Feature","geometry": {"type": "Point","coordinates":[ -122.403799, 37.777259]},"properties": {"name": "The Endup", "locality":"San Francisco"}},
{ "type": "Feature","geometry": {"type": "Point","coordinates":[ -71.070492, 42.361822]},"properties": {"name": "The Liberty, a Luxury Collection Hotel", "locality":"Boston"}},
{ "type": "Feature","geometry": {"type": "Point","coordinates":[ -122.417235, 37.807346]},"properties": {"name": "Starbucks", "locality":"San Francisco"}},
{ "type": "Feature","geometry": {"type": "Point","coordinates":[ -122.404078, 37.785433]},"properties": {"name": "Tropisuexf1o", "locality":"San Francisco"}},
{ "type": "Feature","geometry": {"type": "Point","coordinates":[ -71.088792, 42.348917]},"properties": {"name": "Eliot Hotel", "locality":"Boston"}},
{ "type": "Feature","geometry": {"type": "Point","coordinates":[ -122.419, 37.802064]},"properties": {"name": "Lombard Street", "locality":"San Francisco"}},
{ "type": "Feature","geometry": {"type": "Point","coordinates":[ -71.057035, 42.361288]},"properties": {"name": "Union Oyster House", "locality":"Boston"}},
{ "type": "Feature","geometry": {"type": "Point","coordinates":[ -71.105234, 42.334037]},"properties": {"name": "Penguin Pizza", "locality":"Boston"}},
{ "type": "Feature","geometry": {"type": "Point","coordinates":[ -71.088405, 42.340729]},"properties": {"name": "Conor Larkin's Grill and Tap", "locality":"Boston"}},
{ "type": "Feature","geometry": {"type": "Point","coordinates":[ -71.089937, 42.340145]},"properties": {"name": "Boloco", "locality":"Boston"}},
{ "type": "Feature","geometry": {"type": "Point","coordinates":[ -71.081574, 42.348934]},"properties": {"name": "Mandarin Oriental", "locality":"Boston"}},
{ "type": "Feature","geometry": {"type": "Point","coordinates":[ -122.431618, 37.776892]},"properties": {"name": "Alamo Square Seafood Grill", "locality":"San Francisco"}},
{ "type": "Feature","geometry": {"type": "Point","coordinates":[ -71.074046, 42.349578]},"properties": {"name": "John Hancock Life Ins Co.", "locality":"Boston"}},
{ "type": "Feature","geometry": {"type": "Point","coordinates":[ -71.078054, 42.350145]},"properties": {"name": "Old South Church", "locality":"Boston"}},
{ "type": "Feature","geometry": {"type": "Point","coordinates":[ -122.392904, 37.793576]},"properties": {"name": "Americano", "locality":"San Francisco"}},
{ "type": "Feature","geometry": {"type": "Point","coordinates":[ -122.468327, 37.770953]},"properties": {"name": "de Young Museum", "locality":"San Francisco"}},
{ "type": "Feature","geometry": {"type": "Point","coordinates":[ -122.422643, 37.805776]},"properties": {"name": "Ghirardelli Square", "locality":"San Francisco"}},
{ "type": "Feature","geometry": {"type": "Point","coordinates":[ -122.413898, 37.807524]},"properties": {"name": "The Wharf Inn", "locality":"San Francisco"}},
{ "type": "Feature","geometry": {"type": "Point","coordinates":[ -122.408272, 37.785522]},"properties": {"name": "Infusion Lounge", "locality":"San Francisco"}},
{ "type": "Feature","geometry": {"type": "Point","coordinates":[ -122.403809, 37.782164]},"properties": {"name": "Buca di Beppo", "locality":"San Francisco"}},
{ "type": "Feature","geometry": {"type": "Point","coordinates":[ -122.414689, 37.76035]},"properties": {"name": "Homestead", "locality":"San Francisco"}},
{ "type": "Feature","geometry": {"type": "Point","coordinates":[ -71.043409, 42.346404]},"properties": {"name": "The Westin Boston Waterfront", "locality":"Boston"}},
{ "type": "Feature","geometry": {"type": "Point","coordinates":[ -71.076561, 42.349291]},"properties": {"name": "The Fairmont Copley Plaza", "locality":"Boston"}},
{ "type": "Feature","geometry": {"type": "Point","coordinates":[ -122.420382, 37.781129]},"properties": {"name": "Max's Opera Cafe", "locality":"San Francisco"}},
{ "type": "Feature","geometry": {"type": "Point","coordinates":[ -71.057751, 42.353392]},"properties": {"name": "Starbucks", "locality":"Boston"}},
{ "type": "Feature","geometry": {"type": "Point","coordinates":[ -122.427004, 37.787978]},"properties": {"name": "Baker and Banker", "locality":"San Francisco"}},
{ "type": "Feature","geometry": {"type": "Point","coordinates":[ -122.401921, 37.786727]},"properties": {"name": "The Paramount", "locality":"San Francisco"}},
{ "type": "Feature","geometry": {"type": "Point","coordinates":[ -71.101297, 42.344452]},"properties": {"name": "Starbucks", "locality":"Boston"}},
{ "type": "Feature","geometry": {"type": "Point","coordinates":[ -122.396315, 37.781552]},"properties": {"name": "Ruchi", "locality":"San Francisco"}},
{ "type": "Feature","geometry": {"type": "Point","coordinates":[ -122.39533, 37.777239]},"properties": {"name": "Walgreens", "locality":"San Francisco"}},
{ "type": "Feature","geometry": {"type": "Point","coordinates":[ -71.070152, 42.35729]},"properties": {"name": "The Paramount", "locality":"Boston"}},
{ "type": "Feature","geometry": {"type": "Point","coordinates":[ -122.406373, 37.785126]},"properties": {"name": "Walgreens", "locality":"San Francisco"}},
{ "type": "Feature","geometry": {"type": "Point","coordinates":[ -71.06843, 42.352272]},"properties": {"name": "Four Seasons Hotel Boston", "locality":"Boston"}},
{ "type": "Feature","geometry": {"type": "Point","coordinates":[ -122.423106, 37.805539]},"properties": {"name": "Fairmont Heritage Place, Ghirardelli Square", "locality":"San Francisco"}},
{ "type": "Feature","geometry": {"type": "Point","coordinates":[ -71.100936, 42.344738]},"properties": {"name": "Chipotle Mexican Grill", "locality":"Boston"}},
{ "type": "Feature","geometry": {"type": "Point","coordinates":[ -122.404534, 37.772595]},"properties": {"name": "Rei", "locality":"San Francisco"}},
{ "type": "Feature","geometry": {"type": "Point","coordinates":[ -122.395636, 37.797334]},"properties": {"name": "The Plant - Cafe Organic", "locality":"San Francisco"}},
{ "type": "Feature","geometry": {"type": "Point","coordinates":[ -122.407353, 37.78734]},"properties": {"name": "Cheesecake Factory", "locality":"San Francisco"}},
{ "type": "Feature","geometry": {"type": "Point","coordinates":[ -122.418345, 37.748302]},"properties": {"name": "Walgreens", "locality":"San Francisco"}},
{ "type": "Feature","geometry": {"type": "Point","coordinates":[ -122.399801, 37.767232]},"properties": {"name": "California College of The Arts", "locality":"San Francisco"}},
{ "type": "Feature","geometry": {"type": "Point","coordinates":[ -122.438334, 37.800441]},"properties": {"name": "Apple Store", "locality":"San Francisco"}},
{ "type": "Feature","geometry": {"type": "Point","coordinates":[ -122.40849, 37.785342]},"properties": {"name": "Puccini and Pinetti", "locality":"San Francisco"}},
{ "type": "Feature","geometry": {"type": "Point","coordinates":[ -71.059226, 42.357733]},"properties": {"name": "Starbucks", "locality":"Boston"}},
{ "type": "Feature","geometry": {"type": "Point","coordinates":[ -122.409048, 37.799915]},"properties": {"name": "Tony Nik's Cafe", "locality":"San Francisco"}},
{ "type": "Feature","geometry": {"type": "Point","coordinates":[ -122.395897, 37.795068]},"properties": {"name": "Sens Restaurant", "locality":"San Francisco"}},
{ "type": "Feature","geometry": {"type": "Point","coordinates":[ -122.410384, 37.787158]},"properties": {"name": "Katana-Ya", "locality":"San Francisco"}},
{ "type": "Feature","geometry": {"type": "Point","coordinates":[ -71.072667, 42.350515]},"properties": {"name": "Fire + Ice Boston", "locality":"Boston"}},
{ "type": "Feature","geometry": {"type": "Point","coordinates":[ -71.072297, 42.349279]},"properties": {"name": "The Stanhope Grille at Loews Back Bay Hotel", "locality":"Boston"}},
{ "type": "Feature","geometry": {"type": "Point","coordinates":[ -71.070485, 42.342112]},"properties": {"name": "South End Buttery", "locality":"Boston"}},
{ "type": "Feature","geometry": {"type": "Point","coordinates":[ -122.422068, 37.796685]},"properties": {"name": "Starbucks", "locality":"San Francisco"}},
{ "type": "Feature","geometry": {"type": "Point","coordinates":[ -122.387031, 37.787059]},"properties": {"name": "Red's Java House", "locality":"San Francisco"}},
{ "type": "Feature","geometry": {"type": "Point","coordinates":[ -122.404732, 37.795116]},"properties": {"name": "Hilton San Francisco Financial District", "locality":"San Francisco"}},
{ "type": "Feature","geometry": {"type": "Point","coordinates":[ -71.060896, 42.352993]},"properties": {"name": "Freedom Trail Foundation", "locality":"Boston"}},
{ "type": "Feature","geometry": {"type": "Point","coordinates":[ -122.401084, 37.628119]},"properties": {"name": "Hertz Rent A Car", "locality":"San Francisco"}},
{ "type": "Feature","geometry": {"type": "Point","coordinates":[ -122.410291, 37.792293]},"properties": {"name": "Tonga Room", "locality":"San Francisco"}},
{ "type": "Feature","geometry": {"type": "Point","coordinates":[ -122.414389, 37.771327]},"properties": {"name": "Wish", "locality":"San Francisco"}},
{ "type": "Feature","geometry": {"type": "Point","coordinates":[ -122.400906, 37.785683]},"properties": {"name": "Caffe Museo", "locality":"San Francisco"}},
{ "type": "Feature","geometry": {"type": "Point","coordinates":[ -122.435082, 37.761961]},"properties": {"name": "440 Castro", "locality":"San Francisco"}},
{ "type": "Feature","geometry": {"type": "Point","coordinates":[ -122.394675, 37.789158]},"properties": {"name": "Sushi Fantastic", "locality":"San Francisco"}},
{ "type": "Feature","geometry": {"type": "Point","coordinates":[ -71.059044, 42.353755]},"properties": {"name": "J J Foleys Bar and Grill", "locality":"Boston"}},
{ "type": "Feature","geometry": {"type": "Point","coordinates":[ -71.031586, 42.370405]},"properties": {"name": "Embassy Suites Boston - at Logan Airport", "locality":"Boston"}},
{ "type": "Feature","geometry": {"type": "Point","coordinates":[ -71.063163, 42.353296]},"properties": {"name": "The Ritz-Carlton, Boston Common", "locality":"Boston"}},
{ "type": "Feature","geometry": {"type": "Point","coordinates":[ -122.464865, 37.76419]},"properties": {"name": "Naan N Curry", "locality":"San Francisco"}},
{ "type": "Feature","geometry": {"type": "Point","coordinates":[ -122.399399, 37.79334]},"properties": {"name": "Tadich Grill", "locality":"San Francisco"}},
{ "type": "Feature","geometry": {"type": "Point","coordinates":[ -122.393867, 37.795467]},"properties": {"name": "Ferry Building", "locality":"San Francisco"}},
{ "type": "Feature","geometry": {"type": "Point","coordinates":[ -122.420071, 37.745192]},"properties": {"name": "The Knockout", "locality":"San Francisco"}},
{ "type": "Feature","geometry": {"type": "Point","coordinates":[ -122.401826, 37.783778]},"properties": {"name": "Moscone Center", "locality":"San Francisco"}},
{ "type": "Feature","geometry": {"type": "Point","coordinates":[ -122.409368, 37.766278]},"properties": {"name": "Peet's Coffee and Tea", "locality":"San Francisco"}},
{ "type": "Feature","geometry": {"type": "Point","coordinates":[ -122.409796, 37.789204]},"properties": {"name": "Hotel Rex", "locality":"San Francisco"}},
{ "type": "Feature","geometry": {"type": "Point","coordinates":[ -71.078756, 42.350757]},"properties": {"name": "Starbucks", "locality":"Boston"}},
{ "type": "Feature","geometry": {"type": "Point","coordinates":[ -122.388473, 37.784382]},"properties": {"name": "Delancey Street Restaurant", "locality":"San Francisco"}},
{ "type": "Feature","geometry": {"type": "Point","coordinates":[ -122.398775, 37.787867]},"properties": {"name": "Anchor and Hope", "locality":"San Francisco"}},
{ "type": "Feature","geometry": {"type": "Point","coordinates":[ -122.410216, 37.78592]},"properties": {"name": "Hilton San Francisco Union Square", "locality":"San Francisco"}},
{ "type": "Feature","geometry": {"type": "Point","coordinates":[ -122.412987, 37.768772]},"properties": {"name": "Best Buy", "locality":"San Francisco"}},
{ "type": "Feature","geometry": {"type": "Point","coordinates":[ -71.071306, 42.352831]},"properties": {"name": "Afternoon Tea at Taj Boston", "locality":"Boston"}},
{ "type": "Feature","geometry": {"type": "Point","coordinates":[ -122.404366, 37.789862]},"properties": {"name": "Loehmann's", "locality":"San Francisco"}},
{ "type": "Feature","geometry": {"type": "Point","coordinates":[ -71.054749, 42.360157]},"properties": {"name": "Ned Devine's Irish Pub", "locality":"Boston"}},
{ "type": "Feature","geometry": {"type": "Point","coordinates":[ -122.410881, 37.78888]},"properties": {"name": "White Horse Restaurant and Pub", "locality":"San Francisco"}},
{ "type": "Feature","geometry": {"type": "Point","coordinates":[ -122.421503, 37.762524]},"properties": {"name": "Elbo Room", "locality":"San Francisco"}},
{ "type": "Feature","geometry": {"type": "Point","coordinates":[ -122.428804, 37.767207]},"properties": {"name": "Chow", "locality":"San Francisco"}},
{ "type": "Feature","geometry": {"type": "Point","coordinates":[ -122.430394, 37.785453]},"properties": {"name": "Benihana", "locality":"San Francisco"}},
{ "type": "Feature","geometry": {"type": "Point","coordinates":[ -122.392253, 37.791268]},"properties": {"name": "Starbucks", "locality":"San Francisco"}},
{ "type": "Feature","geometry": {"type": "Point","coordinates":[ -71.016333, 42.366567]},"properties": {"name": "Boston Logan International Airport", "locality":"Boston"}},
{ "type": "Feature","geometry": {"type": "Point","coordinates":[ -122.434619, 37.788578]},"properties": {"name": "Starbucks", "locality":"San Francisco"}},
{ "type": "Feature","geometry": {"type": "Point","coordinates":[ -71.085108, 42.34813]},"properties": {"name": "Cactus Club", "locality":"Boston"}},
{ "type": "Feature","geometry": {"type": "Point","coordinates":[ -122.466342, 37.765753]},"properties": {"name": "Pacific Catch - Sunset District", "locality":"San Francisco"}},
{ "type": "Feature","geometry": {"type": "Point","coordinates":[ -122.397232, 37.792508]},"properties": {"name": "Montgomery Flowers At Bart Mkt", "locality":"San Francisco"}},
{ "type": "Feature","geometry": {"type": "Point","coordinates":[ -122.43234, 37.781837]},"properties": {"name": "Yoshi's San Francisco", "locality":"San Francisco"}},
{ "type": "Feature","geometry": {"type": "Point","coordinates":[ -122.399671, 37.785571]},"properties": {"name": "Thirsty Bear Brewing Co.", "locality":"San Francisco"}},
{ "type": "Feature","geometry": {"type": "Point","coordinates":[ -122.407578, 37.783982]},"properties": {"name": "Nordstrom Wedding Suite - San Francisco Centre", "locality":"San Francisco"}},
{ "type": "Feature","geometry": {"type": "Point","coordinates":[ -122.418031, 37.779692]},"properties": {"name": "Civic Center Plaza Garage", "locality":"San Francisco"}},
{ "type": "Feature","geometry": {"type": "Point","coordinates":[ -122.40708, 37.79869]},"properties": {"name": "Citizen Thai", "locality":"San Francisco"}},
{ "type": "Feature","geometry": {"type": "Point","coordinates":[ -122.407918, 37.784716]},"properties": {"name": "Forever 21", "locality":"San Francisco"}},
{ "type": "Feature","geometry": {"type": "Point","coordinates":[ -71.127684, 42.300407]},"properties": {"name": "Brigham and Women's Faulkner Hospital", "locality":"Boston"}},
{ "type": "Feature","geometry": {"type": "Point","coordinates":[ -71.055493, 42.35938]},"properties": {"name": "Clarke's", "locality":"Boston"}},
{ "type": "Feature","geometry": {"type": "Point","coordinates":[ -122.420011, 37.780264]},"properties": {"name": "Chase", "locality":"San Francisco"}},
{ "type": "Feature","geometry": {"type": "Point","coordinates":[ -122.417352, 37.776857]},"properties": {"name": "Starbucks", "locality":"San Francisco"}},
{ "type": "Feature","geometry": {"type": "Point","coordinates":[ -122.40745, 37.786794]},"properties": {"name": "Sunglass Hut at Macy's", "locality":"San Francisco"}},
{ "type": "Feature","geometry": {"type": "Point","coordinates":[ -122.42667, 37.742972]},"properties": {"name": "Toast Eatery", "locality":"San Francisco"}},
{ "type": "Feature","geometry": {"type": "Point","coordinates":[ -122.391131, 37.778035]},"properties": {"name": "Public House", "locality":"San Francisco"}},
{ "type": "Feature","geometry": {"type": "Point","coordinates":[ -71.055943, 42.35229]},"properties": {"name": "Starbucks", "locality":"Boston"}},
{ "type": "Feature","geometry": {"type": "Point","coordinates":[ -122.408965, 37.775702]},"properties": {"name": "Triptych", "locality":"San Francisco"}},
{ "type": "Feature","geometry": {"type": "Point","coordinates":[ -122.416223, 37.806388]},"properties": {"name": "Holiday Inn Express Hotel San Francisco Fishermans Wharf", "locality":"San Francisco"}},
{ "type": "Feature","geometry": {"type": "Point","coordinates":[ -122.397135, 37.787868]},"properties": {"name": "Prana", "locality":"San Francisco"}},
{ "type": "Feature","geometry": {"type": "Point","coordinates":[ -122.389313, 37.790759]},"properties": {"name": "Epic Roasthouse", "locality":"San Francisco"}},
{ "type": "Feature","geometry": {"type": "Point","coordinates":[ -122.412801, 37.771033]},"properties": {"name": "DNA Lounge", "locality":"San Francisco"}},
{ "type": "Feature","geometry": {"type": "Point","coordinates":[ -71.065173, 42.343647]},"properties": {"name": "JJ Foley's Cafe", "locality":"Boston"}},
{ "type": "Feature","geometry": {"type": "Point","coordinates":[ -122.402277, 37.792882]},"properties": {"name": "Merchants Exchange Club", "locality":"San Francisco"}},
{ "type": "Feature","geometry": {"type": "Point","coordinates":[ -71.039943, 42.347983]},"properties": {"name": "Renaissance Boston Waterfront Hotel", "locality":"Boston"}},
{ "type": "Feature","geometry": {"type": "Point","coordinates":[ -122.411212, 37.786915]},"properties": {"name": "Velvet Room", "locality":"San Francisco"}},
{ "type": "Feature","geometry": {"type": "Point","coordinates":[ -122.420908, 37.785492]},"properties": {"name": "Mel's Drive In", "locality":"San Francisco"}},
{ "type": "Feature","geometry": {"type": "Point","coordinates":[ -122.422309, 37.805676]},"properties": {"name": "Ghirardelli Chocolate", "locality":"San Francisco"}},
{ "type": "Feature","geometry": {"type": "Point","coordinates":[ -71.075803, 42.347093]},"properties": {"name": "Equinox", "locality":"Boston"}},
{ "type": "Feature","geometry": {"type": "Point","coordinates":[ -71.065592, 42.361745]},"properties": {"name": "Whole Foods Market", "locality":"Boston"}},
{ "type": "Feature","geometry": {"type": "Point","coordinates":[ -122.433575, 37.788322]},"properties": {"name": "Harry's Bar", "locality":"San Francisco"}},
{ "type": "Feature","geometry": {"type": "Point","coordinates":[ -122.405276, 37.78526]},"properties": {"name": "The Container Store", "locality":"San Francisco"}},
{ "type": "Feature","geometry": {"type": "Point","coordinates":[ -122.439063, 37.773281]},"properties": {"name": "Falletti Foods", "locality":"San Francisco"}},
{ "type": "Feature","geometry": {"type": "Point","coordinates":[ -71.081297, 42.345999]},"properties": {"name": "Cheesecake Factory", "locality":"Boston"}},
{ "type": "Feature","geometry": {"type": "Point","coordinates":[ -122.402136, 37.771659]},"properties": {"name": "Advent Software", "locality":"San Francisco"}},
{ "type": "Feature","geometry": {"type": "Point","coordinates":[ -122.431056, 37.772163]},"properties": {"name": "Mad Dog in the Fog", "locality":"San Francisco"}},
{ "type": "Feature","geometry": {"type": "Point","coordinates":[ -71.051318, 42.359591]},"properties": {"name": "Legal Sea Foods - Long Wharf", "locality":"Boston"}},
{ "type": "Feature","geometry": {"type": "Point","coordinates":[ -122.407737, 37.78267]},"properties": {"name": "54 Mint", "locality":"San Francisco"}},
{ "type": "Feature","geometry": {"type": "Point","coordinates":[ -71.075522, 42.346554]},"properties": {"name": "Clerys Bar and Restaurant", "locality":"Boston"}},
{ "type": "Feature","geometry": {"type": "Point","coordinates":[ -122.432571, 37.764188]},"properties": {"name": "Starbelly", "locality":"San Francisco"}},
{ "type": "Feature","geometry": {"type": "Point","coordinates":[ -122.404084, 37.781871]},"properties": {"name": "Downtown San Francisco", "locality":"San Francisco"}},
{ "type": "Feature","geometry": {"type": "Point","coordinates":[ -71.070877, 42.36006]},"properties": {"name": "Panificio", "locality":"Boston"}},
{ "type": "Feature","geometry": {"type": "Point","coordinates":[ -122.437984, 37.775515]},"properties": {"name": "Mojo Bicycle Cafe", "locality":"San Francisco"}},
{ "type": "Feature","geometry": {"type": "Point","coordinates":[ -122.402378, 37.802836]},"properties": {"name": "Starbucks", "locality":"San Francisco"}},
{ "type": "Feature","geometry": {"type": "Point","coordinates":[ -122.437309, 37.723542]},"properties": {"name": "Beijing Restaurant", "locality":"San Francisco"}},
{ "type": "Feature","geometry": {"type": "Point","coordinates":[ -122.410126, 37.78736]},"properties": {"name": "Ruby Skye", "locality":"San Francisco"}},
{ "type": "Feature","geometry": {"type": "Point","coordinates":[ -122.402179, 37.789655]},"properties": {"name": "Bamboo Asia", "locality":"San Francisco"}},
{ "type": "Feature","geometry": {"type": "Point","coordinates":[ -122.437068, 37.772047]},"properties": {"name": "Little Chihuahua Mexican Restaurant", "locality":"San Francisco"}},
{ "type": "Feature","geometry": {"type": "Point","coordinates":[ -122.400913, 37.792445]},"properties": {"name": "Mandarin Oriental", "locality":"San Francisco"}},
{ "type": "Feature","geometry": {"type": "Point","coordinates":[ -71.057936, 42.357982]},"properties": {"name": "Starbucks", "locality":"Boston"}},
{ "type": "Feature","geometry": {"type": "Point","coordinates":[ -122.394229, 37.796005]},"properties": {"name": "Gott's Roadside", "locality":"San Francisco"}},
{ "type": "Feature","geometry": {"type": "Point","coordinates":[ -122.396209, 37.794833]},"properties": {"name": "Osha Thai Restaurant", "locality":"San Francisco"}},
{ "type": "Feature","geometry": {"type": "Point","coordinates":[ -122.407548, 37.784051]},"properties": {"name": "Cafxe9 Bistro - Nordstrom San Francisco", "locality":"San Francisco"}},
{ "type": "Feature","geometry": {"type": "Point","coordinates":[ -122.480268, 37.78057]},"properties": {"name": "RadioShack", "locality":"San Francisco"}},
{ "type": "Feature","geometry": {"type": "Point","coordinates":[ -122.422695, 37.793341]},"properties": {"name": "House of Prime Rib", "locality":"San Francisco"}},
{ "type": "Feature","geometry": {"type": "Point","coordinates":[ -122.4305, 37.797632]},"properties": {"name": "Starbucks", "locality":"San Francisco"}},
{ "type": "Feature","geometry": {"type": "Point","coordinates":[ -122.408315, 37.786359]},"properties": {"name": "Cako Bakery", "locality":"San Francisco"}},
{ "type": "Feature","geometry": {"type": "Point","coordinates":[ -71.050767, 42.363935]},"properties": {"name": "Starbucks", "locality":"Boston"}},
{ "type": "Feature","geometry": {"type": "Point","coordinates":[ -122.408989, 37.787292]},"properties": {"name": "Union Square Gentry", "locality":"San Francisco"}},
{ "type": "Feature","geometry": {"type": "Point","coordinates":[ -122.410452, 37.801322]},"properties": {"name": "Saints Peter and Paul Church", "locality":"San Francisco"}},
{ "type": "Feature","geometry": {"type": "Point","coordinates":[ -71.048623, 42.353788]},"properties": {"name": "Barking Crab Boston", "locality":"Boston"}},
{ "type": "Feature","geometry": {"type": "Point","coordinates":[ -122.387763, 37.781291]},"properties": {"name": "South Beach Harbor", "locality":"San Francisco"}},
{ "type": "Feature","geometry": {"type": "Point","coordinates":[ -71.084467, 42.348237]},"properties": {"name": "Pour House", "locality":"Boston"}},
{ "type": "Feature","geometry": {"type": "Point","coordinates":[ -71.0775, 42.350556]},"properties": {"name": "Lolita Cocina and Tequila Bar", "locality":"Boston"}},
{ "type": "Feature","geometry": {"type": "Point","coordinates":[ -122.423673, 37.790362]},"properties": {"name": "Whole Foods Market", "locality":"San Francisco"}},
{ "type": "Feature","geometry": {"type": "Point","coordinates":[ -71.087156, 42.348147]},"properties": {"name": "Starbucks", "locality":"Boston"}},
{ "type": "Feature","geometry": {"type": "Point","coordinates":[ -122.420371, 37.752197]},"properties": {"name": "Phat Philly", "locality":"San Francisco"}},
{ "type": "Feature","geometry": {"type": "Point","coordinates":[ -122.409042, 37.787047]},"properties": {"name": "Handlery Union Square Hotel", "locality":"San Francisco"}},
{ "type": "Feature","geometry": {"type": "Point","coordinates":[ -71.054836, 42.354703]},"properties": {"name": "Starbucks", "locality":"Boston"}},
{ "type": "Feature","geometry": {"type": "Point","coordinates":[ -71.11772, 42.351782]},"properties": {"name": "Agganis Arena", "locality":"Boston"}},
{ "type": "Feature","geometry": {"type": "Point","coordinates":[ -122.43513, 37.760993]},"properties": {"name": "Walgreens", "locality":"San Francisco"}},
{ "type": "Feature","geometry": {"type": "Point","coordinates":[ -122.399801, 37.793127]},"properties": {"name": "Starbucks", "locality":"San Francisco"}},
{ "type": "Feature","geometry": {"type": "Point","coordinates":[ -71.054605, 42.356358]},"properties": {"name": "The Reserve at The Langham", "locality":"Boston"}},
{ "type": "Feature","geometry": {"type": "Point","coordinates":[ -122.408476, 37.776046]},"properties": {"name": "Rocco's Cafe", "locality":"San Francisco"}},
{ "type": "Feature","geometry": {"type": "Point","coordinates":[ -71.071178, 42.355832]},"properties": {"name": "Cheers", "locality":"Boston"}},
{ "type": "Feature","geometry": {"type": "Point","coordinates":[ -71.063388, 42.327999]},"properties": {"name": "The Home Depot Installation Services", "locality":"Boston"}},
{ "type": "Feature","geometry": {"type": "Point","coordinates":[ -122.387284, 37.711991]},"properties": {"name": "Monster Park", "locality":"San Francisco"}},
{ "type": "Feature","geometry": {"type": "Point","coordinates":[ -122.392295, 37.792628]},"properties": {"name": "Ozumo", "locality":"San Francisco"}},
{ "type": "Feature","geometry": {"type": "Point","coordinates":[ -71.055147, 42.359842]},"properties": {"name": "Anthem", "locality":"Boston"}},
{ "type": "Feature","geometry": {"type": "Point","coordinates":[ -71.065994, 42.351146]},"properties": {"name": "Starbucks", "locality":"Boston"}},
{ "type": "Feature","geometry": {"type": "Point","coordinates":[ -122.406859, 37.789328]},"properties": {"name": "Starbucks", "locality":"San Francisco"}},
{ "type": "Feature","geometry": {"type": "Point","coordinates":[ -122.404191, 37.784332]},"properties": {"name": "Starbucks", "locality":"San Francisco"}},
{ "type": "Feature","geometry": {"type": "Point","coordinates":[ -122.466666, 37.765781]},"properties": {"name": "The Little Shamrock", "locality":"San Francisco"}},
{ "type": "Feature","geometry": {"type": "Point","coordinates":[ -71.075316, 42.342084]},"properties": {"name": "Tremont 647", "locality":"Boston"}},
{ "type": "Feature","geometry": {"type": "Point","coordinates":[ -122.455037, 37.78129]},"properties": {"name": "Mel's Drive In", "locality":"San Francisco"}},
{ "type": "Feature","geometry": {"type": "Point","coordinates":[ -122.416124, 37.806174]},"properties": {"name": "Hyatt at Fisherman's Wharf", "locality":"San Francisco"}},
{ "type": "Feature","geometry": {"type": "Point","coordinates":[ -122.401942, 37.789613]},"properties": {"name": "Starbucks", "locality":"San Francisco"}},
{ "type": "Feature","geometry": {"type": "Point","coordinates":[ -71.087, 42.348302]},"properties": {"name": "Patagonia", "locality":"Boston"}},
{ "type": "Feature","geometry": {"type": "Point","coordinates":[ -122.421318, 37.742992]},"properties": {"name": "Emmy's Spaghetti Shack", "locality":"San Francisco"}},
{ "type": "Feature","geometry": {"type": "Point","coordinates":[ -122.460001, 37.798574]},"properties": {"name": "Inn at the Presidio", "locality":"San Francisco"}},
{ "type": "Feature","geometry": {"type": "Point","coordinates":[ -122.421127, 37.792259]},"properties": {"name": "Red Devil Lounge", "locality":"San Francisco"}},
{ "type": "Feature","geometry": {"type": "Point","coordinates":[ -122.407507, 37.799597]},"properties": {"name": "Grant and Green Saloon", "locality":"San Francisco"}},
{ "type": "Feature","geometry": {"type": "Point","coordinates":[ -122.409244, 37.783687]},"properties": {"name": "Farmer Brown", "locality":"San Francisco"}},
{ "type": "Feature","geometry": {"type": "Point","coordinates":[ -122.401879, 37.786491]},"properties": {"name": "The Grove Cafe Yerba Buena", "locality":"San Francisco"}},
{ "type": "Feature","geometry": {"type": "Point","coordinates":[ -71.102425, 42.335359]},"properties": {"name": "Harvard School-Public Health", "locality":"Boston"}},
{ "type": "Feature","geometry": {"type": "Point","coordinates":[ -71.097961, 42.347137]},"properties": {"name": "Game On Fenway", "locality":"Boston"}},
{ "type": "Feature","geometry": {"type": "Point","coordinates":[ -122.407236, 37.787765]},"properties": {"name": "Union Square", "locality":"San Francisco"}},
{ "type": "Feature","geometry": {"type": "Point","coordinates":[ -122.434079, 37.787124]},"properties": {"name": "Out the Door", "locality":"San Francisco"}},
{ "type": "Feature","geometry": {"type": "Point","coordinates":[ -122.436004, 37.798912]},"properties": {"name": "Balboa Cafe", "locality":"San Francisco"}},
{ "type": "Feature","geometry": {"type": "Point","coordinates":[ -122.437883, 37.800705]},"properties": {"name": "Naked Fish", "locality":"San Francisco"}},
{ "type": "Feature","geometry": {"type": "Point","coordinates":[ -122.40666, 37.767451]},"properties": {"name": "Mighty", "locality":"San Francisco"}},
{ "type": "Feature","geometry": {"type": "Point","coordinates":[ -122.465923, 37.763946]},"properties": {"name": "Pasion - SF", "locality":"San Francisco"}},
{ "type": "Feature","geometry": {"type": "Point","coordinates":[ -122.460622, 37.783053]},"properties": {"name": "B Star Bar", "locality":"San Francisco"}},
{ "type": "Feature","geometry": {"type": "Point","coordinates":[ -71.096281, 42.345201]},"properties": {"name": "Jerry Remy's Sports Bar and Grill", "locality":"Boston"}},
{ "type": "Feature","geometry": {"type": "Point","coordinates":[ -71.06603, 42.34989]},"properties": {"name": "Charles Playhouse", "locality":"Boston"}},
{ "type": "Feature","geometry": {"type": "Point","coordinates":[ -71.10297, 42.344282]},"properties": {"name": "Best Buy", "locality":"Boston"}},
{ "type": "Feature","geometry": {"type": "Point","coordinates":[ -71.079545, 42.347101]},"properties": {"name": "Champion's Sports Bar and Restaurant", "locality":"Boston"}},
{ "type": "Feature","geometry": {"type": "Point","coordinates":[ -122.465943, 37.764202]},"properties": {"name": "Starbucks", "locality":"San Francisco"}},
{ "type": "Feature","geometry": {"type": "Point","coordinates":[ -122.402209, 37.784197]},"properties": {"name": "Samovar Tea Lounge", "locality":"San Francisco"}},
{ "type": "Feature","geometry": {"type": "Point","coordinates":[ -122.410775, 37.772085]},"properties": {"name": "Lone Star Saloon", "locality":"San Francisco"}},
{ "type": "Feature","geometry": {"type": "Point","coordinates":[ -71.065143, 42.352241]},"properties": {"name": "Colonial Theatre", "locality":"Boston"}},
{ "type": "Feature","geometry": {"type": "Point","coordinates":[ -122.420621, 37.757017]},"properties": {"name": "Serrano's Pizza and Pasta", "locality":"San Francisco"}},
{ "type": "Feature","geometry": {"type": "Point","coordinates":[ -122.424568, 37.768089]},"properties": {"name": "Mission Beach Cafe", "locality":"San Francisco"}},
{ "type": "Feature","geometry": {"type": "Point","coordinates":[ -71.022588, 42.366273]},"properties": {"name": "Lamonts Gift Shop Hilton-Boston Logan Intnl Hilton-Boston Logan", "locality":"Boston"}},
{ "type": "Feature","geometry": {"type": "Point","coordinates":[ -71.106662, 42.339079]},"properties": {"name": "Starbucks", "locality":"Boston"}},
{ "type": "Feature","geometry": {"type": "Point","coordinates":[ -122.431892, 37.797651]},"properties": {"name": "Extreme Pizza", "locality":"San Francisco"}},
{ "type": "Feature","geometry": {"type": "Point","coordinates":[ -122.407478, 37.784145]},"properties": {"name": "Starbucks", "locality":"San Francisco"}},
{ "type": "Feature","geometry": {"type": "Point","coordinates":[ -122.436385, 37.800721]},"properties": {"name": "Circa", "locality":"San Francisco"}},
{ "type": "Feature","geometry": {"type": "Point","coordinates":[ -122.400607, 37.782207]},"properties": {"name": "Twitter HQ", "locality":"San Francisco"}},
{ "type": "Feature","geometry": {"type": "Point","coordinates":[ -71.042792, 42.350732]},"properties": {"name": "The Whiskey Priest", "locality":"Boston"}},
{ "type": "Feature","geometry": {"type": "Point","coordinates":[ -122.394085, 37.776678]},"properties": {"name": "Safeway", "locality":"San Francisco"}},
{ "type": "Feature","geometry": {"type": "Point","coordinates":[ -71.099821, 42.336655]},"properties": {"name": "Massachusetts College of Art", "locality":"Boston"}},
{ "type": "Feature","geometry": {"type": "Point","coordinates":[ -122.417191, 37.791094]},"properties": {"name": "The Wreck Room", "locality":"San Francisco"}},
{ "type": "Feature","geometry": {"type": "Point","coordinates":[ -122.406697, 37.788942]},"properties": {"name": "Vessel", "locality":"San Francisco"}},
{ "type": "Feature","geometry": {"type": "Point","coordinates":[ -122.421964, 37.764461]},"properties": {"name": "Limon", "locality":"San Francisco"}},
{ "type": "Feature","geometry": {"type": "Point","coordinates":[ -71.082449, 42.348222]},"properties": {"name": "Sephora - Prudential Center", "locality":"Boston"}},
{ "type": "Feature","geometry": {"type": "Point","coordinates":[ -122.411285, 37.785587]},"properties": {"name": "Fish and Farm", "locality":"San Francisco"}},
{ "type": "Feature","geometry": {"type": "Point","coordinates":[ -71.05802, 42.358931]},"properties": {"name": "Ames Hotel", "locality":"Boston"}},
{ "type": "Feature","geometry": {"type": "Point","coordinates":[ -71.054529, 42.360147]},"properties": {"name": "Durgin Park", "locality":"Boston"}},
{ "type": "Feature","geometry": {"type": "Point","coordinates":[ -71.053366, 42.33225]},"properties": {"name": "Stadium", "locality":"Boston"}},
{ "type": "Feature","geometry": {"type": "Point","coordinates":[ -122.418926, 37.759522]},"properties": {"name": "Arabian Nights Restaurant", "locality":"San Francisco"}},
{ "type": "Feature","geometry": {"type": "Point","coordinates":[ -71.067577, 42.340865]},"properties": {"name": "Gaslight", "locality":"Boston"}},
{ "type": "Feature","geometry": {"type": "Point","coordinates":[ -122.405068, 37.785005]},"properties": {"name": "The Mosser", "locality":"San Francisco"}},
{ "type": "Feature","geometry": {"type": "Point","coordinates":[ -71.059317, 42.36392]},"properties": {"name": "The Grand Canal", "locality":"Boston"}},
{ "type": "Feature","geometry": {"type": "Point","coordinates":[ -122.419965, 37.768245]},"properties": {"name": "The Armory Club", "locality":"San Francisco"}},
{ "type": "Feature","geometry": {"type": "Point","coordinates":[ -71.094395, 42.338948]},"properties": {"name": "Museum of Fine Arts", "locality":"Boston"}},
{ "type": "Feature","geometry": {"type": "Point","coordinates":[ -122.401952, 37.792084]},"properties": {"name": "Credo", "locality":"San Francisco"}},
{ "type": "Feature","geometry": {"type": "Point","coordinates":[ -122.418018, 37.806291]},"properties": {"name": "Holiday Inn San Francisco-Fishermans Wharf", "locality":"San Francisco"}},
{ "type": "Feature","geometry": {"type": "Point","coordinates":[ -122.420724, 37.760213]},"properties": {"name": "Lexington Club", "locality":"San Francisco"}},
{ "type": "Feature","geometry": {"type": "Point","coordinates":[ -122.405496, 37.785347]},"properties": {"name": "Hotel Palomar San Francisco, a Kimpton Hotel", "locality":"San Francisco"}},
{ "type": "Feature","geometry": {"type": "Point","coordinates":[ -122.394587, 37.779683]},"properties": {"name": "Koh Samui and The Monkey", "locality":"San Francisco"}},
{ "type": "Feature","geometry": {"type": "Point","coordinates":[ -122.407814, 37.786487]},"properties": {"name": "King of Thai Noodle On Union Square", "locality":"San Francisco"}},
{ "type": "Feature","geometry": {"type": "Point","coordinates":[ -122.431441, 37.771912]},"properties": {"name": "Noc Noc", "locality":"San Francisco"}},
{ "type": "Feature","geometry": {"type": "Point","coordinates":[ -122.434506, 37.761085]},"properties": {"name": "SF Mix", "locality":"San Francisco"}},
{ "type": "Feature","geometry": {"type": "Point","coordinates":[ -71.063829, 42.351133]},"properties": {"name": "Jacob Wirth", "locality":"Boston"}},
{ "type": "Feature","geometry": {"type": "Point","coordinates":[ -122.42108, 37.764856]},"properties": {"name": "Pancho Villa Taqueria", "locality":"San Francisco"}},
{ "type": "Feature","geometry": {"type": "Point","coordinates":[ -122.485645, 37.780212]},"properties": {"name": "Trad'r Sam", "locality":"San Francisco"}},
{ "type": "Feature","geometry": {"type": "Point","coordinates":[ -71.06993, 42.350803]},"properties": {"name": "The Boston Park Plaza Hotel and Towers", "locality":"Boston"}},
{ "type": "Feature","geometry": {"type": "Point","coordinates":[ -71.061145, 42.357227]},"properties": {"name": "Nine Zero Hotel Boston, a Kimpton Hotel", "locality":"Boston"}},
{ "type": "Feature","geometry": {"type": "Point","coordinates":[ -122.421118, 37.793061]},"properties": {"name": "Amelie", "locality":"San Francisco"}},
{ "type": "Feature","geometry": {"type": "Point","coordinates":[ -71.068192, 42.351247]},"properties": {"name": "Legal Sea Foods - Park Square", "locality":"Boston"}},
{ "type": "Feature","geometry": {"type": "Point","coordinates":[ -71.065295, 42.34999]},"properties": {"name": "Courtyard Boston Tremont Hotel", "locality":"Boston"}},
{ "type": "Feature","geometry": {"type": "Point","coordinates":[ -122.466373, 37.765211]},"properties": {"name": "Park Chow", "locality":"San Francisco"}},
{ "type": "Feature","geometry": {"type": "Point","coordinates":[ -71.06838, 42.351363]},"properties": {"name": "Maggiano's", "locality":"Boston"}},
{ "type": "Feature","geometry": {"type": "Point","coordinates":[ -71.054848, 42.363349]},"properties": {"name": "Modern Pastry", "locality":"Boston"}},
{ "type": "Feature","geometry": {"type": "Point","coordinates":[ -122.427034, 37.761772]},"properties": {"name": "Mission High School", "locality":"San Francisco"}},
{ "type": "Feature","geometry": {"type": "Point","coordinates":[ -122.40362, 37.769854]},"properties": {"name": "Grand Pu Bah", "locality":"San Francisco"}},
{ "type": "Feature","geometry": {"type": "Point","coordinates":[ -122.40832, 37.776183]},"properties": {"name": "Radius", "locality":"San Francisco"}},
{ "type": "Feature","geometry": {"type": "Point","coordinates":[ -122.400078, 37.795391]},"properties": {"name": "Punch Line Comedy Club", "locality":"San Francisco"}},
{ "type": "Feature","geometry": {"type": "Point","coordinates":[ -122.398671, 37.794319]},"properties": {"name": "Walgreens", "locality":"San Francisco"}},
{ "type": "Feature","geometry": {"type": "Point","coordinates":[ -122.431844, 37.78932]},"properties": {"name": "Congregation Sherith Israel", "locality":"San Francisco"}},
{ "type": "Feature","geometry": {"type": "Point","coordinates":[ -122.407428, 37.784091]},"properties": {"name": "Ajisen Ramen", "locality":"San Francisco"}},
{ "type": "Feature","geometry": {"type": "Point","coordinates":[ -122.40672, 37.789073]},"properties": {"name": "Taj Campton Place", "locality":"San Francisco"}},
{ "type": "Feature","geometry": {"type": "Point","coordinates":[ -122.408393, 37.789059]},"properties": {"name": "Starbucks", "locality":"San Francisco"}},
{ "type": "Feature","geometry": {"type": "Point","coordinates":[ -122.433212, 37.751196]},"properties": {"name": "Le Zinc", "locality":"San Francisco"}},
{ "type": "Feature","geometry": {"type": "Point","coordinates":[ -71.073145, 42.348424]},"properties": {"name": "Zocalo Cocina Mexicana", "locality":"Boston"}},
{ "type": "Feature","geometry": {"type": "Point","coordinates":[ -71.098829, 42.344215]},"properties": {"name": "Basho Japanese Brasserie", "locality":"Boston"}},
{ "type": "Feature","geometry": {"type": "Point","coordinates":[ -71.064171, 42.353212]},"properties": {"name": "Boston Common", "locality":"Boston"}},
{ "type": "Feature","geometry": {"type": "Point","coordinates":[ -71.05452, 42.36396]},"properties": {"name": "Ristorante Saraceno", "locality":"Boston"}},
{ "type": "Feature","geometry": {"type": "Point","coordinates":[ -122.413305, 37.775453]},"properties": {"name": "Starbucks", "locality":"San Francisco"}},
{ "type": "Feature","geometry": {"type": "Point","coordinates":[ -122.390103, 37.789637]},"properties": {"name": "Hills Plaza", "locality":"San Francisco"}},
{ "type": "Feature","geometry": {"type": "Point","coordinates":[ -122.473412, 37.780785]},"properties": {"name": "House of Bagels", "locality":"San Francisco"}},
{ "type": "Feature","geometry": {"type": "Point","coordinates":[ -122.439057, 37.773274]},"properties": {"name": "Nopalito", "locality":"San Francisco"}},
{ "type": "Feature","geometry": {"type": "Point","coordinates":[ -71.05698, 42.361046]},"properties": {"name": "Paddy O's", "locality":"Boston"}},
{ "type": "Feature","geometry": {"type": "Point","coordinates":[ -122.415978, 37.762702]},"properties": {"name": "ODC Dance Commons", "locality":"San Francisco"}},
{ "type": "Feature","geometry": {"type": "Point","coordinates":[ -71.086144, 42.348701]},"properties": {"name": "Sonsie", "locality":"Boston"}},
{ "type": "Feature","geometry": {"type": "Point","coordinates":[ -122.417436, 37.807521]},"properties": {"name": "Walgreens", "locality":"San Francisco"}},
{ "type": "Feature","geometry": {"type": "Point","coordinates":[ -122.421852, 37.765891]},"properties": {"name": "Venga Empanadas", "locality":"San Francisco"}},
{ "type": "Feature","geometry": {"type": "Point","coordinates":[ -122.407331, 37.784328]},"properties": {"name": "Chipotle Mexican Grill", "locality":"San Francisco"}},
{ "type": "Feature","geometry": {"type": "Point","coordinates":[ -71.108849, 42.350802]},"properties": {"name": "George Sherman Union", "locality":"Boston"}},
{ "type": "Feature","geometry": {"type": "Point","coordinates":[ -122.416228, 37.806222]},"properties": {"name": "Knuckles at the Wharf", "locality":"San Francisco"}},
{ "type": "Feature","geometry": {"type": "Point","coordinates":[ -71.070842, 42.351987]},"properties": {"name": "Arlington Street Church", "locality":"Boston"}},
{ "type": "Feature","geometry": {"type": "Point","coordinates":[ -122.400756, 37.790461]},"properties": {"name": "Active Sports Clubs Citigroup", "locality":"San Francisco"}},
{ "type": "Feature","geometry": {"type": "Point","coordinates":[ -122.414554, 37.786632]},"properties": {"name": "Osha Thai Noodle Cafe", "locality":"San Francisco"}},
{ "type": "Feature","geometry": {"type": "Point","coordinates":[ -122.417987, 37.80879]},"properties": {"name": "Scoma's Restaurant", "locality":"San Francisco"}},
{ "type": "Feature","geometry": {"type": "Point","coordinates":[ -122.424465, 37.764862]},"properties": {"name": "Krua Thai", "locality":"San Francisco"}},
{ "type": "Feature","geometry": {"type": "Point","coordinates":[ -71.074746, 42.351644]},"properties": {"name": "Marc by Marc Jacobs Boston", "locality":"Boston"}},
{ "type": "Feature","geometry": {"type": "Point","coordinates":[ -122.403865, 37.7843]},"properties": {"name": "Chiptle Mexian Grill", "locality":"San Francisco"}},
{ "type": "Feature","geometry": {"type": "Point","coordinates":[ -71.076435, 42.349315]},"properties": {"name": "OAK Long Bar + Kitchen", "locality":"Boston"}},
{ "type": "Feature","geometry": {"type": "Point","coordinates":[ -122.403789, 37.789392]},"properties": {"name": "Walgreens", "locality":"San Francisco"}},
{ "type": "Feature","geometry": {"type": "Point","coordinates":[ -122.397769, 37.790097]},"properties": {"name": "83 Proof", "locality":"San Francisco"}},
{ "type": "Feature","geometry": {"type": "Point","coordinates":[ -122.415115, 37.805342]},"properties": {"name": "Starbucks", "locality":"San Francisco"}},
{ "type": "Feature","geometry": {"type": "Point","coordinates":[ -71.07995, 42.350243]},"properties": {"name": "Niketown", "locality":"Boston"}},
{ "type": "Feature","geometry": {"type": "Point","coordinates":[ -122.403691, 37.791797]},"properties": {"name": "The Occidental Cigar Club", "locality":"San Francisco"}},
{ "type": "Feature","geometry": {"type": "Point","coordinates":[ -122.434009, 37.790185]},"properties": {"name": "Starbucks", "locality":"San Francisco"}},
{ "type": "Feature","geometry": {"type": "Point","coordinates":[ -122.410489, 37.760557]},"properties": {"name": "Universal Cafe", "locality":"San Francisco"}},
{ "type": "Feature","geometry": {"type": "Point","coordinates":[ -122.397396, 37.786129]},"properties": {"name": "Cnet Networks", "locality":"San Francisco"}},
{ "type": "Feature","geometry": {"type": "Point","coordinates":[ -122.410385, 37.786176]},"properties": {"name": "Naan Ncurry", "locality":"San Francisco"}},
{ "type": "Feature","geometry": {"type": "Point","coordinates":[ -122.436763, 37.800657]},"properties": {"name": "Tacolicious", "locality":"San Francisco"}},
{ "type": "Feature","geometry": {"type": "Point","coordinates":[ -122.394529, 37.792104]},"properties": {"name": "Starbucks", "locality":"San Francisco"}},
{ "type": "Feature","geometry": {"type": "Point","coordinates":[ -71.070857, 42.3424]},"properties": {"name": "Park Street T Station", "locality":"Boston"}},
{ "type": "Feature","geometry": {"type": "Point","coordinates":[ -122.41899, 37.746866]},"properties": {"name": "Baby Blues BBQ", "locality":"San Francisco"}},
{ "type": "Feature","geometry": {"type": "Point","coordinates":[ -122.393468, 37.795882]},"properties": {"name": "Hog Island Oyster Co.", "locality":"San Francisco"}},
{ "type": "Feature","geometry": {"type": "Point","coordinates":[ -122.498612, 37.783806]},"properties": {"name": "Legion of Honor", "locality":"San Francisco"}},
{ "type": "Feature","geometry": {"type": "Point","coordinates":[ -71.088265, 42.338257]},"properties": {"name": "Snell Library", "locality":"Boston"}},
{ "type": "Feature","geometry": {"type": "Point","coordinates":[ -122.390124, 37.779935]},"properties": {"name": "MoMo's", "locality":"San Francisco"}},
{ "type": "Feature","geometry": {"type": "Point","coordinates":[ -71.045238, 42.335773]},"properties": {"name": "Stats Bar and Grille", "locality":"Boston"}},
{ "type": "Feature","geometry": {"type": "Point","coordinates":[ -122.422537, 37.776836]},"properties": {"name": "Sugar Lounge", "locality":"San Francisco"}},
{ "type": "Feature","geometry": {"type": "Point","coordinates":[ -71.099823, 42.349288]},"properties": {"name": "Starbucks", "locality":"Boston"}},
{ "type": "Feature","geometry": {"type": "Point","coordinates":[ -71.100279, 42.339474]},"properties": {"name": "Simmons College", "locality":"Boston"}},
{ "type": "Feature","geometry": {"type": "Point","coordinates":[ -122.420125, 37.787142]},"properties": {"name": "Blur", "locality":"San Francisco"}},
{ "type": "Feature","geometry": {"type": "Point","coordinates":[ -71.081482, 42.349074]},"properties": {"name": "Abe and Louie's", "locality":"Boston"}},
{ "type": "Feature","geometry": {"type": "Point","coordinates":[ -122.419188, 37.806473]},"properties": {"name": "Fiddler's Green", "locality":"San Francisco"}},
{ "type": "Feature","geometry": {"type": "Point","coordinates":[ -122.46645, 37.74029]},"properties": {"name": "El Toreador", "locality":"San Francisco"}},
{ "type": "Feature","geometry": {"type": "Point","coordinates":[ -122.390347, 37.780615]},"properties": {"name": "Paragon Restaurant and Bar", "locality":"San Francisco"}},
{ "type": "Feature","geometry": {"type": "Point","coordinates":[ -122.412243, 37.801661]},"properties": {"name": "Burgermeister", "locality":"San Francisco"}},
{ "type": "Feature","geometry": {"type": "Point","coordinates":[ -122.426115, 37.770205]},"properties": {"name": "The Mint Karaoke Lounge", "locality":"San Francisco"}},
{ "type": "Feature","geometry": {"type": "Point","coordinates":[ -71.059967, 42.357868]},"properties": {"name": "Parker's Restaurant - Omni Parker House", "locality":"Boston"}},
{ "type": "Feature","geometry": {"type": "Point","coordinates":[ -122.396779, 37.78582]},"properties": {"name": "Starbucks", "locality":"San Francisco"}}
]}